[
  {
    "lat": 49.8763253,
    "lon": 10.8734812,
    "place": "33, Hezilostraße, Babenberger Viertel, Wildensorg, Bamberg, Bayern, 96049, Deutschland"
  },
  {
    "lat": 49.8741652,
    "lon": 10.8766843,
    "place": "Altenburger Straße, Babenberger Viertel, Wildensorg, Bamberg, Bayern, 96049, Deutschland"
  },
  {
    "lat": 49.8866663,
    "lon": 10.8720674,
    "place": "59, Teufelsgraben, Babenberger Viertel, Wildensorg, Bamberg, Bayern, 96049, Deutschland"
  },
  {
    "lat": 49.894413,
    "lon": 10.8893848,
    "place": "Dr.-Remeis-Straße, Inselstadt, Wildensorg, Bamberg, Bayern, 96049, Deutschland"
  },
  {
    "lat": 49.8947112,
    "lon": 10.8718944,
    "place": "Lavendellabyrinth, Ottobrunnen, Berggebiet, Bamberg, Bayern, 96049, Deutschland"
  },
  {
    "lat": 49.8987363,
    "lon": 10.8710887,
    "place": "42, Willostraße, Berggebiet, Bamberg, Bayern, 96049, Deutschland"
  },
  {
    "lat": 49.9126348,
    "lon": 10.8759934,
    "place": "Maria-Ward-Straße, Bamberg-Nord, Bamberg, Bayern, 96047, Deutschland"
  },
  {
    "lat": 49.9076685,
    "lon": 10.8729467,
    "place": "17, Lagerhausstraße, Bamberg-Nord, Bamberg, Bayern, 96052, Deutschland"
  },
  {
    "lat": 49.910306,
    "lon": 10.8748907,
    "place": "21, Laubanger, Bamberg-Nord, Bamberg, Bayern, 96052, Deutschland"
  },
  {
    "lat": 49.9141788,
    "lon": 10.8778899,
    "place": "Multipolster, Emil-Kemmer-Straße, Hallstadt, Landkreis Bamberg, Bayern, 96103, Deutschland"
  },
  {
    "lat": 49.9214906,
    "lon": 10.8720892,
    "place": "Freiwillige Feuerwehr Hallstadt, An der Feuerwehr, Dörfleins, Hallstadt, Landkreis Bamberg, Bayern, 96103, Deutschland"
  },
  {
    "lat": 49.8798812,
    "lon": 10.8886562,
    "place": "12, Hans-Wölfel-Straße, Dörfleins, Hallstadt, Landkreis Bamberg, Bayern, 96103, Deutschland"
  },
  {
    "lat": 49.912443,
    "lon": 10.9260822,
    "place": "12, Adolf-Wächter-Straße, Dörfleins, Hallstadt, Landkreis Bamberg, Bayern, 96103, Deutschland"
  },
  {
    "lat": 49.9310802,
    "lon": 10.86006,
    "place": "Mühlhofstraße, Dörfleins, Hallstadt, Landkreis Bamberg, Bayern, 96103, Deutschland"
  },
  {
    "lat": 49.8729571,
    "lon": 10.8818325,
    "place": "67, Babenbergerring, Babenberger Viertel, Wildensorg, Bamberg, Bayern, 96049, Deutschland"
  },
  {
    "lat": 49.8850415,
    "lon": 10.8794658,
    "place": "76a, Panzerleite, Babenberger Viertel, Wildensorg, Bamberg, Bayern, 96049, Deutschland"
  },
  {
    "lat": 49.8808653,
    "lon": 10.8708212,
    "place": "87, Altenburger Straße, Babenberger Viertel, Wildensorg, Bamberg, Bayern, 96049, Deutschland"
  },
  {
    "lat": 49.894413,
    "lon": 10.8893848,
    "place": "Teufelsgraben, Inselstadt, Wildensorg, Bamberg, Bayern, 96049, Deutschland"
  },
  {
    "lat": 49.8889108,
    "lon": 10.8795174,
    "place": "Michelsberg, Berggebiet, Bamberg, Bayern, 96049, Deutschland"
  },
  {
    "lat": 49.8988562,
    "lon": 10.8768002,
    "place": "5, Am Uferholz, Berggebiet, Bamberg, Bayern, 96047, Deutschland"
  },
  {
    "lat": 49.8993743,
    "lon": 10.8823047,
    "place": "91a, Weidendamm, Bamberg-Nord, Bamberg, Bayern, 96047, Deutschland"
  },
  {
    "lat": 49.9084988,
    "lon": 10.8737328,
    "place": "16, Hafenstraße, Bamberg-Nord, Bamberg, Bayern, 96052, Deutschland"
  },
  {
    "lat": 49.9126348,
    "lon": 10.8759934,
    "place": "Dr.-Robert-Pfleger-Straße, Bamberg-Nord, Bamberg, Bayern, 96052, Deutschland"
  },
  {
    "lat": 49.928801,
    "lon": 10.8754637,
    "place": "St 2190, Hallstadt, Landkreis Bamberg, Bayern, 96103, Deutschland"
  },
  {
    "lat": 49.9310802,
    "lon": 10.86006,
    "place": "A 70, Dörfleins, Hallstadt, Landkreis Bamberg, Bayern, 96103, Deutschland"
  },
  {
    "lat": 49.8456392,
    "lon": 10.7257593,
    "place": "28b, Friedhofstraße, Dörfleins, Hallstadt, Landkreis Bamberg, Bayern, 96103, Deutschland"
  },
  {
    "lat": 49.9300746,
    "lon": 10.8765138,
    "place": "11, Seelagraben, Dörfleins, Hallstadt, Landkreis Bamberg, Bayern, 96103, Deutschland"
  },
  {
    "lat": 49.9310802,
    "lon": 10.86006,
    "place": "Lempdeser Straße, Dörfleins, Hallstadt, Landkreis Bamberg, Bayern, 96103, Deutschland"
  },
  {
    "lat": 49.8763525,
    "lon": 10.882063,
    "place": "23, Valentin-Becker-Straße, Babenberger Viertel, Bamberg, Bayern, 96049, Deutschland"
  },
  {
    "lat": 49.8812623,
    "lon": 10.8816676,
    "place": "58a, Artur-Landgraf-Straße, Berggebiet, Bamberg, Bayern, 96049, Deutschland"
  },
  {
    "lat": 49.8850415,
    "lon": 10.8794658,
    "place": "47, Panzerleite, Berggebiet, Bamberg, Bayern, 96049, Deutschland"
  },
  {
    "lat": 49.8901719,
    "lon": 10.8795762,
    "place": "16, Maternstraße, Berggebiet, Bamberg, Bayern, 96049, Deutschland"
  },
  {
    "lat": 49.8933529,
    "lon": 10.8820246,
    "place": "41, Untere Sandstraße, Berggebiet, Bamberg, Bayern, 96049, Deutschland"
  },
  {
    "lat": 49.8982481,
    "lon": 10.8793782,
    "place": "12, Geschwister-Scholl-Ring, Berggebiet, Bamberg, Bayern, 96047, Deutschland"
  },
  {
    "lat": 49.9029943,
    "lon": 10.8815191,
    "place": "1, Lichtenhaidestraße, Bamberg-Nord, Bamberg, Bayern, 96052, Deutschland"
  },
  {
    "lat": 49.910306,
    "lon": 10.8748907,
    "place": "3, Laubanger, Bamberg-Nord, Bamberg, Bayern, 96052, Deutschland"
  },
  {
    "lat": 49.9159477,
    "lon": 10.8835015,
    "place": "Carl Götz, 1, Benzstraße, Bamberg-Nord, Bamberg, Bayern, 96052, Deutschland"
  },
  {
    "lat": 49.9126348,
    "lon": 10.8759934,
    "place": "Coburger Straße, Bamberg-Nord, Bamberg, Bayern, 96052, Deutschland"
  },
  {
    "lat": 49.928801,
    "lon": 10.8754637,
    "place": "A 70, Hallstadt, Landkreis Bamberg, Bayern, 96103, Deutschland"
  },
  {
    "lat": 49.9237668,
    "lon": 10.8759576,
    "place": "37, Landsknechtstraße, Dörfleins, Hallstadt, Landkreis Bamberg, Bayern, 96103, Deutschland"
  },
  {
    "lat": 51.1077972,
    "lon": 7.6373364,
    "place": "54, Bahnhofstraße, Hallstadt, Landkreis Bamberg, Bayern, 96103, Deutschland"
  },
  {
    "lat": 49.9330107,
    "lon": 10.8790684,
    "place": "6, Lempdeser Straße, Hallstadt, Landkreis Bamberg, Bayern, 96103, Deutschland"
  },
  {
    "lat": 49.8916044,
    "lon": 10.8868478,
    "place": "REWE, 55, Würzburger Straße, Babenberger Viertel, Bamberg, Bayern, 96049, Deutschland"
  },
  {
    "lat": 49.8855362,
    "lon": 10.8866235,
    "place": "Katholisches Bildungszentrum am Oberen Stephansberg Bamberg, Oberer Stephansberg, Berggebiet, Bamberg, Bayern, 96049, Deutschland"
  },
  {
    "lat": 49.8874044,
    "lon": 10.88547,
    "place": "34, Untere Seelgasse, Berggebiet, Bamberg, Bayern, 96049, Deutschland"
  },
  {
    "lat": 51.9422345,
    "lon": 10.8285472,
    "place": "Studentenwohnheim \"Romanischer Turm\", 2, Judenstraße, Inselstadt, Bamberg, Bayern, 96049, Deutschland"
  },
  {
    "lat": 49.8941676,
    "lon": 10.8852117,
    "place": "Otto-Friedrich-Universität Bamberg, Studierendenkanzlei, Universitätsarchiv, 25, Kapuzinerstraße, Inselstadt, Bamberg, Bayern, 96047, Deutschland"
  },
  {
    "lat": 49.894413,
    "lon": 10.8893848,
    "place": "Weidendamm, Inselstadt, Bamberg, Bayern, 96047, Deutschland"
  },
  {
    "lat": 49.9035266,
    "lon": 10.8840007,
    "place": "Gunreben, Jäckstraße, Inselstadt, Bamberg, Bayern, 96052, Deutschland"
  },
  {
    "lat": 49.9066691,
    "lon": 10.8851839,
    "place": "46b, Hallstadter Straße, Schubertshof, Bamberg-Nord, Bamberg, Bayern, 96052, Deutschland"
  },
  {
    "lat": 49.9104521,
    "lon": 10.8938616,
    "place": "Coburger Straße, Schubertshof, Bamberg-Nord, Bamberg, Bayern, 96052, Deutschland"
  },
  {
    "lat": 49.9126348,
    "lon": 10.8759934,
    "place": "Coburger Straße, Bamberg-Nord, Bamberg, Bayern, 96052, Deutschland"
  },
  {
    "lat": 49.8916044,
    "lon": 10.8868478,
    "place": "Hallstadt (b Bamberg), A 70, Hallstadt, Landkreis Bamberg, Bayern, 96103, Deutschland"
  },
  {
    "lat": 49.8890637,
    "lon": 10.8784739,
    "place": "14, Gartenstraße, Hallstadt, Landkreis Bamberg, Bayern, 96103, Deutschland"
  },
  {
    "lat": 49.8899673,
    "lon": 10.9103997,
    "place": "Hallstadt (bei Bamberg), Kapellenstraße, Hallstadt, Landkreis Bamberg, Bayern, 96103, Deutschland"
  },
  {
    "lat": 49.91002,
    "lon": 10.8928354,
    "place": "SV Hallstadt 1922 e.V., Gundelsheimer Straße, Hallstadt, Landkreis Bamberg, Bayern, 96103, Deutschland"
  },
  {
    "lat": 49.8693757,
    "lon": 10.8931016,
    "place": "Münchner Ring, Am Bruderwald, Bug, Bamberg, Bayern, 96049, Deutschland"
  },
  {
    "lat": 49.878134,
    "lon": 10.8915494,
    "place": "35, Schellenbergerstraße, Haingebiet, Berggebiet, Bamberg, Bayern, 96049, Deutschland"
  },
  {
    "lat": 49.8851945,
    "lon": 10.8892648,
    "place": "E.T.A.-Hoffmann-Gymnasium, Milchweg, Haingebiet, Inselstadt, Bamberg, Bayern, 96049, Deutschland"
  },
  {
    "lat": 49.8862076,
    "lon": 10.8981186,
    "place": "Nonnenbrücke, Haingebiet, Inselstadt, Bamberg, Bayern, 96047, Deutschland"
  },
  {
    "lat": 49.8945155,
    "lon": 10.8894466,
    "place": "2, Maximiliansplatz, Inselstadt, Bamberg, Bayern, 96047, Deutschland"
  },
  {
    "lat": 49.8993397,
    "lon": 10.891553,
    "place": "3, Färbergasse, Inselstadt, Bamberg, Bayern, 96052, Deutschland"
  },
  {
    "lat": 49.9120256,
    "lon": 10.9128046,
    "place": "Luitpoldschule, Memmelsdorfer Straße, Inselstadt, Bamberg, Bayern, 96052, Deutschland"
  },
  {
    "lat": 49.91002,
    "lon": 10.8928354,
    "place": "5, Gundelsheimer Straße, Schubertshof, Gärtnerstadt, Bamberg, Bayern, 96052, Deutschland"
  },
  {
    "lat": 49.9109759,
    "lon": 10.8862064,
    "place": "Gemeinschaftsgarten Nord, Coburger Straße, Schubertshof, Bamberg-Nord, Bamberg, Bayern, 96052, Deutschland"
  },
  {
    "lat": 49.9207883,
    "lon": 10.8876625,
    "place": "29, Am Börstig, Bamberg-Nord, Bamberg, Bayern, 96052, Deutschland"
  },
  {
    "lat": 49.9207883,
    "lon": 10.8876625,
    "place": "P4.4, Am Börstig, Bamberg-Nord, Bamberg, Bayern, 96052, Deutschland"
  },
  {
    "lat": 49.9243781,
    "lon": 10.8924299,
    "place": "130, Michelinstraße, Hallstadt, Landkreis Bamberg, Bayern, 96103, Deutschland"
  },
  {
    "lat": 49.9243781,
    "lon": 10.8924299,
    "place": "27, Michelinstraße, Hallstadt, Landkreis Bamberg, Bayern, 96103, Deutschland"
  },
  {
    "lat": 49.928801,
    "lon": 10.8754637,
    "place": "St 2244, Hallstadt, Landkreis Bamberg, Bayern, 96103, Deutschland"
  },
  {
    "lat": 49.8693757,
    "lon": 10.8931016,
    "place": "Münchner Ring, Am Bruderwald, Bug, Bamberg, Bayern, 96049, Deutschland"
  },
  {
    "lat": 49.878134,
    "lon": 10.8915494,
    "place": "67, Schellenbergerstraße, Am Bruderwald, Bamberg, Bayern, 96049, Deutschland"
  },
  {
    "lat": 49.8916044,
    "lon": 10.8868478,
    "place": "Hainbad, 18, Mühlwörth, Haingebiet, Inselstadt, Bamberg, Bayern, 96047, Deutschland"
  },
  {
    "lat": 49.9159477,
    "lon": 10.8835015,
    "place": "Am Blumenhaus, 1, Amalienstraße, Haingebiet, Inselstadt, Bamberg, Bayern, 96047, Deutschland"
  },
  {
    "lat": 49.8940449,
    "lon": 10.8946705,
    "place": "9, Heinrichsdamm, Gärtnerstadt, Bamberg, Bayern, 96047, Deutschland"
  },
  {
    "lat": 49.8961998,
    "lon": 10.8941801,
    "place": "27a, Luitpoldstraße, Gärtnerstadt, Bamberg, Bayern, 96052, Deutschland"
  },
  {
    "lat": 49.8970805,
    "lon": 10.8974641,
    "place": "Ludwigstraße, Gärtnerstadt, Bamberg, Bayern, 96052, Deutschland"
  },
  {
    "lat": 49.9104521,
    "lon": 10.8938616,
    "place": "Brennerstraße, Schubertshof, Gärtnerstadt, Bamberg, Bayern, 96052, Deutschland"
  },
  {
    "lat": 49.9104521,
    "lon": 10.8938616,
    "place": "Kronacher Straße, Schubertshof, Bamberg-Nord, Bamberg, Bayern, 96052, Deutschland"
  },
  {
    "lat": 49.8916044,
    "lon": 10.8868478,
    "place": "SPS Germany GmbH, 5, Am Börstig, Bamberg-Nord, Bamberg, Bayern, 96052, Deutschland"
  },
  {
    "lat": 49.9126348,
    "lon": 10.8759934,
    "place": "Am Börstig, Bamberg-Nord, Bamberg, Bayern, 96052, Deutschland"
  },
  {
    "lat": 49.928801,
    "lon": 10.8754637,
    "place": "Max-Brose-Straße, Hallstadt, Landkreis Bamberg, Bayern, 96103, Deutschland"
  },
  {
    "lat": 49.928801,
    "lon": 10.8754637,
    "place": "Auweg, Hallstadt, Landkreis Bamberg, Bayern, 96103, Deutschland"
  },
  {
    "lat": 49.928801,
    "lon": 10.8754637,
    "place": "BA 5, Hallstadt, Landkreis Bamberg, Bayern, 96103, Deutschland"
  },
  {
    "lat": 49.8693757,
    "lon": 10.8931016,
    "place": "Oberer Leinritt, Am Bruderwald, Bug, Bamberg, Bayern, 96049, Deutschland"
  },
  {
    "lat": 49.8762107,
    "lon": 10.8905575,
    "place": "Wanderfische sind bedroht, Münchner Ring, Haingebiet, Am Bruderwald, Bamberg, Bayern, 96047, Deutschland"
  },
  {
    "lat": 49.8849527,
    "lon": 10.8983765,
    "place": "57, Schützenstraße, Haingebiet, Gärtnerstadt, Bamberg, Bayern, 96047, Deutschland"
  },
  {
    "lat": 49.8896418,
    "lon": 10.8954803,
    "place": "23, Amalienstraße, Haingebiet, Gärtnerstadt, Bamberg, Bayern, 96047, Deutschland"
  },
  {
    "lat": 49.8941819,
    "lon": 10.8985842,
    "place": "23, Gabelsbergerstraße, Wunderburg, Gärtnerstadt, Bamberg, Bayern, 96050, Deutschland"
  },
  {
    "lat": 49.8970805,
    "lon": 10.8974641,
    "place": "Kaimsgasse, Gärtnerstadt, Bamberg, Bayern, 96052, Deutschland"
  },
  {
    "lat": 49.8970805,
    "lon": 10.8974641,
    "place": "Brennerstraße, Gärtnerstadt, Bamberg, Bayern, 96052, Deutschland"
  },
  {
    "lat": 49.9083337,
    "lon": 10.8967067,
    "place": "8, Kammermeisterweg, Schubertshof, Gärtnerstadt, Bamberg, Bayern, 96052, Deutschland"
  },
  {
    "lat": 51.9422345,
    "lon": 10.8285472,
    "place": "Motor Nützel, 2, Josef-Kindshoven-Straße, Schubertshof, Bamberg-Ost, Bamberg, Bayern, 96052, Deutschland"
  },
  {
    "lat": 49.9118629,
    "lon": 10.8936463,
    "place": "43, Kronacher Straße, Schubertshof, Bruckertshof, Bamberg, Bayern, 96052, Deutschland"
  },
  {
    "lat": 49.9207883,
    "lon": 10.8876625,
    "place": "P4.3, Am Börstig, Bruckertshof, Bamberg, Bayern, 96052, Deutschland"
  },
  {
    "lat": 49.928801,
    "lon": 10.8754637,
    "place": "St 2244, Hallstadt, Landkreis Bamberg, Bayern, 96103, Deutschland"
  },
  {
    "lat": 49.928801,
    "lon": 10.8754637,
    "place": "St 2244, Hallstadt, Landkreis Bamberg, Bayern, 96103, Deutschland"
  },
  {
    "lat": 49.928801,
    "lon": 10.8754637,
    "place": "BA 5, Hallstadt, Landkreis Bamberg, Bayern, 96103, Deutschland"
  },
  {
    "lat": 49.8862076,
    "lon": 10.8981186,
    "place": "Mühlwörth, Haingebiet, Bughof, Bug, Bamberg, Bayern, 96047, Deutschland"
  },
  {
    "lat": 49.8883299,
    "lon": 10.9021928,
    "place": "Botanischer Garten, Weegmannufer, Wunderburg, Am Bruderwald, Bug, Bamberg, Bayern, 96047, Deutschland"
  },
  {
    "lat": 49.887956,
    "lon": 10.9019371,
    "place": "P+R Heinrichsdamm, Rhein-Main-Donau-Damm, Haingebiet, Gereuth, Bamberg, Bayern, 96047, Deutschland"
  },
  {
    "lat": 49.894512,
    "lon": 10.8966895,
    "place": "58, Kunigundendamm, Wunderburg, Gärtnerstadt, Bamberg, Bayern, 96050, Deutschland"
  },
  {
    "lat": 49.8827643,
    "lon": 10.9210951,
    "place": "60, Nürnberger Straße, Wunderburg, Gärtnerstadt, Bamberg, Bayern, 96050, Deutschland"
  },
  {
    "lat": 49.8970805,
    "lon": 10.8974641,
    "place": "Brennerstraße, Gärtnerstadt, Bamberg, Bayern, 96052, Deutschland"
  },
  {
    "lat": 49.9037184,
    "lon": 10.9036475,
    "place": "40, Zollnerstraße, Gärtnerstadt, Bamberg, Bayern, 96052, Deutschland"
  },
  {
    "lat": 49.8916044,
    "lon": 10.8868478,
    "place": "Otto-Friedrich-Universität Bamberg, 21, Feldkirchenstraße, Bamberg-Ost, Bamberg, Bayern, 96052, Deutschland"
  },
  {
    "lat": 49.9104521,
    "lon": 10.8938616,
    "place": "Rodezstraße, Schubertshof, Bamberg-Ost, Bamberg, Bayern, 96052, Deutschland"
  },
  {
    "lat": 49.9104521,
    "lon": 10.8938616,
    "place": "St 2244, Schubertshof, Bruckertshof, Bamberg, Bayern, 96052, Deutschland"
  },
  {
    "lat": 49.9118629,
    "lon": 10.8936463,
    "place": "59, Kronacher Straße, Kramersfeld, Bruckertshof, Bamberg, Bayern, 96052, Deutschland"
  },
  {
    "lat": 49.928801,
    "lon": 10.8754637,
    "place": "Borstig, Hallstadt, Landkreis Bamberg, Bayern, 96103, Deutschland"
  },
  {
    "lat": 49.9207883,
    "lon": 10.8876625,
    "place": "1a, Am Börstig, Bruckertshof, Hallstadt, Bayern, 96103, Deutschland"
  },
  {
    "lat": 49.928801,
    "lon": 10.8754637,
    "place": "BA 5, Hallstadt, Landkreis Bamberg, Bayern, 96103, Deutschland"
  },
  {
    "lat": 49.882834,
    "lon": 10.9174526,
    "place": "Galgenfuhr, Gereuth, Bamberg, Bayern, 96050, Deutschland"
  },
  {
    "lat": 49.8862076,
    "lon": 10.8981186,
    "place": "Galgenfuhr, Haingebiet, Gereuth, Bamberg, Bayern, 96050, Deutschland"
  },
  {
    "lat": 49.8849402,
    "lon": 10.9088201,
    "place": "16, Am Luitpoldhain, Wunderburg, Gereuth, Bamberg, Bayern, 96050, Deutschland"
  },
  {
    "lat": 49.8902117,
    "lon": 10.9064841,
    "place": "Hans-Schütz-Straße, Wunderburg, Gereuth, Bamberg, Bayern, 96050, Deutschland"
  },
  {
    "lat": 49.8953007,
    "lon": 10.9087467,
    "place": "Bamberg Baa, Kanonikus-Schwab-Straße, Malerviertel, Bamberg-Ost, Bamberg, Bayern, 96050, Deutschland"
  },
  {
    "lat": 49.8989533,
    "lon": 10.9170922,
    "place": "Starkenfeldstraße, Malerviertel, Bamberg-Ost, Bamberg, Bayern, 96050, Deutschland"
  },
  {
    "lat": 49.9036667,
    "lon": 10.9093821,
    "place": "47, Eckbertstraße, Malerviertel, Bamberg-Ost, Bamberg, Bayern, 96052, Deutschland"
  },
  {
    "lat": 49.9039402,
    "lon": 10.9121331,
    "place": "Troppauplatz, Bamberg-Ost, Bamberg, Bayern, 96052, Deutschland"
  },
  {
    "lat": 49.9039402,
    "lon": 10.9121331,
    "place": "Rodezstraße, Bamberg-Ost, Bamberg, Bayern, 96052, Deutschland"
  },
  {
    "lat": 49.9113268,
    "lon": 10.9188785,
    "place": "Zeppelinstraße, Gartenstadt, Bamberg, Bayern, 96052, Deutschland"
  },
  {
    "lat": 49.9212441,
    "lon": 10.9076662,
    "place": "11, Harthstraße, Kramersfeld, Bruckertshof, Bamberg, Bayern, 96052, Deutschland"
  },
  {
    "lat": 49.928801,
    "lon": 10.8754637,
    "place": "Borstig, Hallstadt, Landkreis Bamberg, Bayern, 96103, Deutschland"
  },
  {
    "lat": 49.9207883,
    "lon": 10.8876625,
    "place": "13, Am Börstig, Bruckertshof, Hallstadt, Bayern, 96103, Deutschland"
  },
  {
    "lat": 49.937542,
    "lon": 10.9195081,
    "place": "BA 5, Gundelsheim, Landkreis Bamberg, Bayern, 96163, Deutschland"
  },
  {
    "lat": 49.8691313,
    "lon": 10.9114394,
    "place": "Am Sendelbach, Bughof, Bug, Bamberg, Bayern, 96050, Deutschland"
  },
  {
    "lat": 49.8743156,
    "lon": 10.9126257,
    "place": "15, Am Sendelbach, Am Bruderwald, Bug, Bamberg, Bayern, 96050, Deutschland"
  },
  {
    "lat": 49.8846697,
    "lon": 10.9136366,
    "place": "2, Zweidlerweg, Wunderburg, Gereuth, Bamberg, Bayern, 96050, Deutschland"
  },
  {
    "lat": 49.8827643,
    "lon": 10.9210951,
    "place": "183, Nürnberger Straße, Wunderburg, Gereuth, Bamberg, Bayern, 96050, Deutschland"
  },
  {
    "lat": 49.8947408,
    "lon": 10.9123907,
    "place": "20, Theodor-Heuss-Ring, Malerviertel, Bamberg-Ost, Bamberg, Bayern, 96050, Deutschland"
  },
  {
    "lat": 49.89647,
    "lon": 10.9129985,
    "place": "Graf-Stauffenberg-Schule, Kloster-Langheim-Straße, Malerviertel, Bamberg-Ost, Bamberg, Bayern, 96050, Deutschland"
  },
  {
    "lat": 49.8989533,
    "lon": 10.9170922,
    "place": "Birkengraben, Malerviertel, Bamberg-Ost, Bamberg, Bayern, 96052, Deutschland"
  },
  {
    "lat": 49.9083011,
    "lon": 10.9155973,
    "place": "1a, Wassermannstraße, Bamberg-Ost, Bamberg, Bayern, 96052, Deutschland"
  },
  {
    "lat": 49.9113268,
    "lon": 10.9188785,
    "place": "An der Breitenau, Gartenstadt, Bamberg, Bayern, 96052, Deutschland"
  },
  {
    "lat": 49.9253852,
    "lon": 10.9099721,
    "place": "Flugplatz Bamberg-Breitenau, Rennsteig, Kramersfeld, Bruckertshof, Bamberg, Bayern, 96052, Deutschland"
  },
  {
    "lat": 49.9253852,
    "lon": 10.9099721,
    "place": "Flugplatz Bamberg-Breitenau, Rennsteig, Kramersfeld, Bruckertshof, Bamberg, Bayern, 96052, Deutschland"
  },
  {
    "lat": 49.9258686,
    "lon": 10.9127989,
    "place": "5, Abtissensee, Kramersfeld, Bruckertshof, Bamberg, Bayern, 96052, Deutschland"
  },
  {
    "lat": 49.8916044,
    "lon": 10.8868478,
    "place": "Autobahnkreuz Bamberg, A 70, Gundelsheim, Landkreis Bamberg, Bayern, 96163, Deutschland"
  },
  {
    "lat": 49.937542,
    "lon": 10.9195081,
    "place": "A 73, Gundelsheim, Landkreis Bamberg, Bayern, 96163, Deutschland"
  },
  {
    "lat": 49.8743156,
    "lon": 10.9126257,
    "place": "Gemeinschaftsgarten Süd, Am Sendelbach, Bughof, Bug, Bamberg, Bayern, 96050, Deutschland"
  },
  {
    "lat": 49.882834,
    "lon": 10.9174526,
    "place": "Forchheimer Straße, Gereuth, Bamberg, Bayern, 96050, Deutschland"
  },
  {
    "lat": 49.8843051,
    "lon": 10.9171504,
    "place": "3, Kornstraße, Wunderburg, Gereuth, Bamberg, Bayern, 96050, Deutschland"
  },
  {
    "lat": 49.889545,
    "lon": 10.9268561,
    "place": "36, Geisfelder Straße, Wunderburg, Gereuth, Bamberg, Bayern, 96050, Deutschland"
  },
  {
    "lat": 49.8989533,
    "lon": 10.9170922,
    "place": "Moosstraße, Malerviertel, Gereuth, Bamberg, Bayern, 96050, Deutschland"
  },
  {
    "lat": 49.8983506,
    "lon": 10.9158213,
    "place": "2a, Treustraße, Malerviertel, Bamberg-Ost, Bamberg, Bayern, 96050, Deutschland"
  },
  {
    "lat": 49.9059355,
    "lon": 10.9156532,
    "place": "26, Wörthstraße, Malerviertel, Bamberg-Ost, Bamberg, Bayern, 96052, Deutschland"
  },
  {
    "lat": 49.9037184,
    "lon": 10.9036475,
    "place": "175, Zollnerstraße, Gartenstadt, Bamberg, Bayern, 96052, Deutschland"
  },
  {
    "lat": 49.9103852,
    "lon": 10.919098,
    "place": "6, Stauffenbergstraße, Gartenstadt, Bamberg, Bayern, 96052, Deutschland"
  },
  {
    "lat": 49.9120256,
    "lon": 10.9128046,
    "place": "209a, Memmelsdorfer Straße, Gartenstadt, Bamberg, Bayern, 96052, Deutschland"
  },
  {
    "lat": 49.9253852,
    "lon": 10.9099721,
    "place": "Flugplatz Bamberg-Breitenau, Rennsteig, Kramersfeld, Bruckertshof, Bamberg, Bayern, 96052, Deutschland"
  },
  {
    "lat": 49.9264009,
    "lon": 10.9154566,
    "place": "Kemmerstraße, Hirschknock, Bruckertshof, Bamberg, Bayern, 96052, Deutschland"
  },
  {
    "lat": 49.8916044,
    "lon": 10.8868478,
    "place": "Autobahnkreuz Bamberg, A 70, Gundelsheim, Landkreis Bamberg, Bayern, 96163, Deutschland"
  },
  {
    "lat": 49.897786,
    "lon": 10.8982489,
    "place": "Gundelsheim, Landkreis Bamberg, Bayern, 96163, Deutschland"
  },
  {
    "lat": 49.882834,
    "lon": 10.9174526,
    "place": "In der Südflur, Gereuth, Bug, Bamberg, Bayern, 96050, Deutschland"
  },
  {
    "lat": 49.8815386,
    "lon": 10.9194665,
    "place": "129, Distelweg, Gereuth, Bamberg, Bayern, 96050, Deutschland"
  },
  {
    "lat": 49.8827643,
    "lon": 10.9210951,
    "place": "Bosch, Nürnberger Straße, Gereuth, Bamberg, Bayern, 96050, Deutschland"
  },
  {
    "lat": 49.889545,
    "lon": 10.9268561,
    "place": "50, Geisfelder Straße, Gereuth, Bamberg, Bayern, 96050, Deutschland"
  },
  {
    "lat": 49.89502,
    "lon": 10.9141259,
    "place": "Robert Bosch GmbH Werk Bamberg, Ohmstraße, Malerviertel, Bamberg-Ost, Bamberg, Bayern, 96050, Deutschland"
  },
  {
    "lat": 49.8989533,
    "lon": 10.9170922,
    "place": "Carl-Meinelt-Straße, Malerviertel, Bamberg-Ost, Bamberg, Bayern, 96050, Deutschland"
  },
  {
    "lat": 49.9024371,
    "lon": 10.9222538,
    "place": "9, Sudetenstraße, Malerviertel, Bamberg-Ost, Bamberg, Bayern, 96050, Deutschland"
  },
  {
    "lat": 49.9113268,
    "lon": 10.9188785,
    "place": "Zollnerstraße, Gartenstadt, Bamberg, Bayern, 96052, Deutschland"
  },
  {
    "lat": 49.9121095,
    "lon": 10.9217411,
    "place": "11, Fichtestraße, Gartenstadt, Bamberg, Bayern, 96052, Deutschland"
  },
  {
    "lat": 49.915227,
    "lon": 10.9221129,
    "place": "101, Hauptsmoorstraße, Gartenstadt, Bamberg, Bayern, 96052, Deutschland"
  },
  {
    "lat": 49.9120256,
    "lon": 10.9128046,
    "place": "Briefzentrum 96, Memmelsdorfer Straße, Gartenstadt, Bamberg, Bayern, 96052, Deutschland"
  },
  {
    "lat": 49.937542,
    "lon": 10.9195081,
    "place": "A 73, Gundelsheim, Landkreis Bamberg, Bayern, 96163, Deutschland"
  },
  {
    "lat": 49.8916044,
    "lon": 10.8868478,
    "place": "Autobahnkreuz Bamberg, A 70, Gundelsheim, Landkreis Bamberg, Bayern, 96163, Deutschland"
  },
  {
    "lat": 49.9618553,
    "lon": 10.9936647,
    "place": "Michael-Arneth Grundschule, Schulstraße, Gundelsheim, Landkreis Bamberg, Bayern, 96163, Deutschland"
  },
  {
    "lat": 49.882834,
    "lon": 10.9174526,
    "place": "Am Tännig, Gereuth, Bug, Bamberg, Bayern, 96050, Deutschland"
  },
  {
    "lat": 49.8796741,
    "lon": 10.9285409,
    "place": "12, Gutenbergstraße, Gereuth, Bamberg, Bayern, 96050, Deutschland"
  },
  {
    "lat": 49.8916044,
    "lon": 10.8868478,
    "place": "Druckzentrum Oberfranken, 3, Gutenbergstraße, Gereuth, Bamberg, Bayern, 96050, Deutschland"
  },
  {
    "lat": 49.882834,
    "lon": 10.9174526,
    "place": "Geisfelder Straße, Gereuth, Bamberg, Bayern, 96050, Deutschland"
  },
  {
    "lat": 49.8900837,
    "lon": 10.9257804,
    "place": "64, Hertzstraße, Malerviertel, Gereuth, Bamberg, Bayern, 96050, Deutschland"
  },
  {
    "lat": 49.8916044,
    "lon": 10.8868478,
    "place": "Stadionbad, 176, Pödeldorfer Straße, Malerviertel, Gartenstadt, Bamberg, Bayern, 96050, Deutschland"
  },
  {
    "lat": 49.902962,
    "lon": 10.9280977,
    "place": "15, Im Kapellenschlag, Malerviertel, Gartenstadt, Bamberg, Bayern, 96050, Deutschland"
  },
  {
    "lat": 49.9006357,
    "lon": 10.8997336,
    "place": "Gartenstadt, Bamberg, Bayern, 96052, Deutschland"
  },
  {
    "lat": 49.912443,
    "lon": 10.9260822,
    "place": "AWO Kinderhaus am Hauptsmoorwald, Adolf-Wächter-Straße, Gartenstadt, Bamberg, Bayern, 96052, Deutschland"
  },
  {
    "lat": 49.9166915,
    "lon": 10.9242303,
    "place": "30, Greiffenbergstraße, Gartenstadt, Bamberg, Bayern, 96052, Deutschland"
  },
  {
    "lat": 49.920063,
    "lon": 10.9265805,
    "place": "SV OG Bamberg, St 2190, Gartenstadt, Bamberg, Bayern, 96052, Deutschland"
  },
  {
    "lat": 49.9259135,
    "lon": 10.9263114,
    "place": "9, Rebhuhnweg, Lichteneiche, Memmelsdorf, Landkreis Bamberg, Bayern, 96117, Deutschland"
  },
  {
    "lat": 49.937542,
    "lon": 10.9195081,
    "place": "A 70, Gundelsheim, Landkreis Bamberg, Bayern, 96163, Deutschland"
  },
  {
    "lat": 49.937542,
    "lon": 10.9195081,
    "place": "Karmelitenstraße, Gundelsheim, Landkreis Bamberg, Bayern, 96163, Deutschland"
  },
  {
    "lat": 49.8790409,
    "lon": 10.9271632,
    "place": "220, Berliner Ring, Gereuth, Bamberg, Bayern, 96050, Deutschland"
  },
  {
    "lat": 49.8796741,
    "lon": 10.9285409,
    "place": "Heeresmunitionsanstalt Bamberg, Gutenbergstraße, Gereuth, Bamberg, Bayern, 96050, Deutschland"
  },
  {
    "lat": 49.8796741,
    "lon": 10.9285409,
    "place": "Heeresmunitionsanstalt Bamberg, Gutenbergstraße, Gereuth, Bamberg, Bayern, 96050, Deutschland"
  },
  {
    "lat": 49.882834,
    "lon": 10.9174526,
    "place": "St 2276, Gereuth, Bamberg, Bayern, 96050, Deutschland"
  },
  {
    "lat": 49.882834,
    "lon": 10.9174526,
    "place": "Armeestraße, Gereuth, Bamberg, Bayern, 96050, Deutschland"
  },
  {
    "lat": 49.9017405,
    "lon": 10.9277574,
    "place": "Uni Bamberg, \"Volkspark\", Armeestraße 47 (V), 47, Armeestraße, Gartenstadt, Bamberg, Bayern, 96050, Deutschland"
  },
  {
    "lat": 49.902962,
    "lon": 10.9280977,
    "place": "67, Im Kapellenschlag, Malerviertel, Gartenstadt, Bamberg, Bayern, 96050, Deutschland"
  },
  {
    "lat": 49.9113268,
    "lon": 10.9188785,
    "place": "Malerviertel, Gartenstadt, Bamberg, Bayern, 96052, Deutschland"
  },
  {
    "lat": 49.9006357,
    "lon": 10.8997336,
    "place": "Gartenstadt, Bamberg, Bayern, 96052, Deutschland"
  },
  {
    "lat": 49.9113268,
    "lon": 10.9188785,
    "place": "Panzerstraße, Gartenstadt, Bamberg, Bayern, 96052, Deutschland"
  },
  {
    "lat": 49.9238155,
    "lon": 10.9314219,
    "place": "St 2190, Lichteneiche, Memmelsdorf, Landkreis Bamberg, Bayern, 96117, Deutschland"
  },
  {
    "lat": 49.925615,
    "lon": 10.9307972,
    "place": "19, Stockseestraße, Lichteneiche, Memmelsdorf, Landkreis Bamberg, Bayern, 96117, Deutschland"
  },
  {
    "lat": 49.9238155,
    "lon": 10.9314219,
    "place": "Karl-Körner-Straße, Lichteneiche, Memmelsdorf, Landkreis Bamberg, Bayern, 96117, Deutschland"
  },
  {
    "lat": 49.9353509,
    "lon": 10.9276198,
    "place": "10, Am Fürstenweg, Gundelsheim, Landkreis Bamberg, Bayern, 96163, Deutschland"
  },
  {
    "lat": 49.882834,
    "lon": 10.9174526,
    "place": "B 22, Gereuth, Bamberg, Bayern, 96050, Deutschland"
  },
  {
    "lat": 49.8796741,
    "lon": 10.9285409,
    "place": "Heeresmunitionsanstalt Bamberg, Gutenbergstraße, Gereuth, Bamberg, Bayern, 96050, Deutschland"
  },
  {
    "lat": 49.8796741,
    "lon": 10.9285409,
    "place": "Heeresmunitionsanstalt Bamberg, Gutenbergstraße, Gereuth, Bamberg, Bayern, 96050, Deutschland"
  },
  {
    "lat": 49.882834,
    "lon": 10.9174526,
    "place": "St 2276, Gereuth, Bamberg, Bayern, 96050, Deutschland"
  },
  {
    "lat": 49.8935218,
    "lon": 10.9290251,
    "place": "Wanderhangeln, Armeestraße, Gereuth, Bamberg, Bayern, 96050, Deutschland"
  },
  {
    "lat": 49.9113268,
    "lon": 10.9188785,
    "place": "Pödeldorfer Straße, Gartenstadt, Bamberg, Bayern, 96050, Deutschland"
  },
  {
    "lat": 49.9113268,
    "lon": 10.9188785,
    "place": "Pödeldorfer Straße, Gartenstadt, Bamberg, Bayern, 96050, Deutschland"
  },
  {
    "lat": 49.9113268,
    "lon": 10.9188785,
    "place": "Kastanienstraße, Gartenstadt, Bamberg, Bayern, 96050, Deutschland"
  },
  {
    "lat": 49.9113268,
    "lon": 10.9188785,
    "place": "Zollnerstraße, Gartenstadt, Bamberg, Bayern, 96052, Deutschland"
  },
  {
    "lat": 49.9113268,
    "lon": 10.9188785,
    "place": "A 73, Gartenstadt, Bamberg, Bayern, 96052, Deutschland"
  },
  {
    "lat": 49.920063,
    "lon": 10.9265805,
    "place": "Naturschutzgebiet Stocksee und Umgebung - Fürstbischöflicher Fischweiher, St 2190, Lichteneiche, Memmelsdorf, Landkreis Bamberg, Bayern, 96117, Deutschland"
  },
  {
    "lat": 49.925615,
    "lon": 10.9307972,
    "place": "51, Stockseestraße, Lichteneiche, Memmelsdorf, Landkreis Bamberg, Bayern, 96117, Deutschland"
  },
  {
    "lat": 49.9409959,
    "lon": 10.95248,
    "place": "A 70, Weichendorf, Memmelsdorf, Landkreis Bamberg, Bayern, 96117, Deutschland"
  },
  {
    "lat": 49.9409959,
    "lon": 10.95248,
    "place": "A 70, Weichendorf, Memmelsdorf, Landkreis Bamberg, Bayern, 96117, Deutschland"
  },
  {
    "lat": 49.9006357,
    "lon": 10.8997336,
    "place": "B 22, Bamberg, Bayern, 96050, Deutschland"
  },
  {
    "lat": 49.8796741,
    "lon": 10.9285409,
    "place": "Heeresmunitionsanstalt Bamberg, Gutenbergstraße, Gereuth, Bamberg, Bayern, 96050, Deutschland"
  },
  {
    "lat": 49.8796741,
    "lon": 10.9285409,
    "place": "Heeresmunitionsanstalt Bamberg, Gutenbergstraße, Gereuth, Bamberg, Bayern, 96050, Deutschland"
  },
  {
    "lat": 49.882834,
    "lon": 10.9174526,
    "place": "St 2276, Gereuth, Bamberg, Bayern, 96050, Deutschland"
  },
  {
    "lat": 49.88887,
    "lon": 10.9390845,
    "place": "Liegestütz, St 2276, Gereuth, Bamberg, Bayern, 96050, Deutschland"
  },
  {
    "lat": 49.9025293,
    "lon": 10.9344047,
    "place": "Flanke über Hindernis, Pödeldorfer Straße, Gartenstadt, Bamberg, Bayern, 96050, Deutschland"
  },
  {
    "lat": 49.9006357,
    "lon": 10.8997336,
    "place": "Pödeldorfer Straße, Bamberg, Bayern, 96050, Deutschland"
  },
  {
    "lat": 49.9064035,
    "lon": 10.9395788,
    "place": "35, Kirschenweg, Bamberg, Bayern, 96050, Deutschland"
  },
  {
    "lat": 49.9113268,
    "lon": 10.9188785,
    "place": "A 73, Gartenstadt, Bamberg, Bayern, 96052, Deutschland"
  },
  {
    "lat": 49.9113268,
    "lon": 10.9188785,
    "place": "A 73, Gartenstadt, Bamberg, Bayern, 96052, Deutschland"
  },
  {
    "lat": 49.9238155,
    "lon": 10.9314219,
    "place": "St 2190, Lichteneiche, Memmelsdorf, Landkreis Bamberg, Bayern, 96117, Deutschland"
  },
  {
    "lat": 49.9238155,
    "lon": 10.9314219,
    "place": "St 2190, Lichteneiche, Memmelsdorf, Landkreis Bamberg, Bayern, 96117, Deutschland"
  },
  {
    "lat": 49.9238155,
    "lon": 10.9314219,
    "place": "St 2190, Lichteneiche, Weichendorf, Memmelsdorf, Landkreis Bamberg, Bayern, 96117, Deutschland"
  },
  {
    "lat": 49.9409959,
    "lon": 10.95248,
    "place": "A 70, Weichendorf, Memmelsdorf, Landkreis Bamberg, Bayern, 96117, Deutschland"
  },
  {
    "lat": 49.9006357,
    "lon": 10.8997336,
    "place": "Frankenschnellweg, Bamberg, Landkreis Bamberg, Bayern, 96050, Deutschland"
  },
  {
    "lat": 49.9006357,
    "lon": 10.8997336,
    "place": "Frankenschnellweg, Bamberg, Bayern, 96050, Deutschland"
  },
  {
    "lat": 49.882834,
    "lon": 10.9174526,
    "place": "St 2276, Gereuth, Bamberg, Bayern, 96050, Deutschland"
  },
  {
    "lat": 49.882834,
    "lon": 10.9174526,
    "place": "St 2276, Gereuth, Bamberg, Bayern, 96050, Deutschland"
  },
  {
    "lat": 49.8916733,
    "lon": 10.9492445,
    "place": "In Stütz springen, Frankenschnellweg, Bamberg, Landkreis Bamberg, Bayern, 96050, Deutschland"
  },
  {
    "lat": 49.8916733,
    "lon": 10.9492445,
    "place": "Knie durchstrecken, Frankenschnellweg, Bamberg, Landkreis Bamberg, Bayern, 96050, Deutschland"
  },
  {
    "lat": 49.9006357,
    "lon": 10.8997336,
    "place": "St 2281, Bamberg, Bayern, 96050, Deutschland"
  },
  {
    "lat": 49.9006357,
    "lon": 10.8997336,
    "place": "Frankenschnellweg, Bamberg, Bayern, 96052, Deutschland"
  },
  {
    "lat": 49.897786,
    "lon": 10.8982489,
    "place": "Hauptsmoor, Landkreis Bamberg, Bayern, 96129, Deutschland"
  },
  {
    "lat": 49.897786,
    "lon": 10.8982489,
    "place": "Hauptsmoor, Landkreis Bamberg, Bayern, 96129, Deutschland"
  },
  {
    "lat": 49.9196391,
    "lon": 10.9310087,
    "place": "Orangerieparterre, Memmelsdorf, Landkreis Bamberg, Bayern, 96117, Deutschland"
  },
  {
    "lat": 49.897786,
    "lon": 10.8982489,
    "place": "Memmelsdorf, Landkreis Bamberg, Bayern, 96117, Deutschland"
  },
  {
    "lat": 49.9238155,
    "lon": 10.9314219,
    "place": "St 2190, Lichteneiche, Weichendorf, Memmelsdorf, Landkreis Bamberg, Bayern, 96117, Deutschland"
  },
  {
    "lat": 49.9409959,
    "lon": 10.95248,
    "place": "A 70, Weichendorf, Memmelsdorf, Landkreis Bamberg, Bayern, 96117, Deutschland"
  }
]